{"cinemas":[{"id":"66155","slug":"the-cathay-singapore-0acf1dea-46ea-49f4-aea5-ffc2cb7c06b5","name":"THE CATHAY","chain_id":"278","city_id":"20660","telephone":null,"website":"https://www.cathaycineplexes.com.sg/showtimes.aspx?cinemacode=1104","location":{"lat":1.2990366,"lon":103.8478449,"address":{"display_text":"2 Handy Road Levels 5 \u0026 6, The Cathay Singapore 229233","street":"Handy Road","house":null,"zipcode":"229233","city":"Singapore","state":null,"state_abbr":null,"country":"Singapore","country_code":"SG"}},"booking_type":"external"},{"id":"60809","slug":"bugis-singapore","name":"FilmGarde Cineplex Bugis+","chain_id":"279","city_id":"20660","telephone":null,"website":"http://www.fgcineplex.com.sg/","location":{"lat":1.29992,"lon":103.852,"address":{"display_text":"201 Victoria Street, 188067 Singapore","street":"Middle Road","house":"161","zipcode":"188978","city":"Singapore","state":null,"state_abbr":null,"country":"Singapore","country_code":"SG"}},"booking_type":"external"},{"id":"60817","slug":"gv-plaza-singapore","name":"Golden Village Plaza","chain_id":"280","city_id":"20660","telephone":null,"website":null,"location":{"lat":1.3007914,"lon":103.8449976,"address":{"display_text":"68 Orchard Road, #07-01, 238839 Singapore","street":"Orchard Road","house":"68","zipcode":"238839","city":"Singapore","state":null,"state_abbr":null,"country":"Singapore","country_code":"SG"}},"booking_type":"external"},{"id":"65929","slug":"gv-funan-singapore","name":"Golden Village Funan","chain_id":"280","city_id":"20660","telephone":null,"website":"https://www.gv.com.sg/GVCinemaDetails#/cinema/15","location":{"lat":1.2911354,"lon":103.8501524,"address":{"display_text":"\t107 North Bridge road, #05-01, Funan Mall, Singapore 179105","street":null,"house":null,"zipcode":null,"city":"Singapore","state":null,"state_abbr":null,"country":"Singapore","country_code":"SG"}},"booking_type":"external"},{"id":"60801","slug":"carnival-cinemas-singapore","name":"Carnival Cinemas Shaw Tower","chain_id":"250","city_id":"20660","telephone":"+65 62935717","website":"https://www.carnivalcinemas.sg/","location":{"lat":1.2966,"lon":103.857,"address":{"display_text":"100 Beach Road, #02-30A Shaw Tower,189702 Singapore","street":"Beach Road","house":"100","zipcode":"189702","city":"Singapore","state":null,"state_abbr":null,"country":"Singapore","country_code":"SG"}},"booking_type":null},{"id":"60821","slug":"gv-suntec-city-singapore","name":"Golden Village Suntec City","chain_id":"280","city_id":"20660","telephone":null,"website":null,"location":{"lat":1.2957506,"lon":103.8597125,"address":{"display_text":"3 Temasek Boulevard, #03-373, 038983 Singapore","street":"Temasek Boulevard","house":"3","zipcode":"038983","city":"Singapore","state":null,"state_abbr":null,"country":"Singapore","country_code":"SG"}},"booking_type":"external"},{"id":"66151","slug":"cineleisure-orchard-singapore-943bcb1c-a77b-4cbb-b864-d007f795106d","name":"CINELEISURE ORCHARD","chain_id":"278","city_id":"20660","telephone":null,"website":"https://www.cathaycineplexes.com.sg/showtimes.aspx?cinemacode=1101","location":{"lat":1.301527,"lon":103.8363441,"address":{"display_text":"8 Grange Road Levels 4, 5 \u0026 6, Cathay Cineleisure Orchard Singapore 239695","street":null,"house":null,"zipcode":"239695","city":"Singapore","state":null,"state_abbr":null,"country":"Singapore","country_code":"SG"}},"booking_type":"external"},{"id":"60832","slug":"rex-cinemas-beachrd-singapore","name":"Carnival REX Cinema Golden Mile Tower","chain_id":"250","city_id":"20660","telephone":"+65 69027095","website":"https://www.carnivalcinemas.sg/","location":{"lat":1.3021308,"lon":103.8638586,"address":{"display_text":"6001, Beach Road ,Golden Mile Tower,199589 Singapore","street":"Beach Road","house":"100","zipcode":"199589","city":"Singapore","state":null,"state_abbr":null,"country":"Singapore","country_code":"SG"}},"booking_type":null},{"id":"60831","slug":"the-projector-singapore","name":"The Projector","chain_id":null,"city_id":"20660","telephone":null,"website":"http://theprojector.sg","location":{"lat":1.30195,"lon":103.864,"address":{"display_text":"6001 Beach Road, #05-00, Golden Mile Tower, 199589","street":"Beach Road","house":"6001","zipcode":"199589","city":"Singapore","state":null,"state_abbr":null,"country":"Singapore","country_code":"SG"}},"booking_type":"external"},{"id":"60820","slug":"gv-city-square-singapore","name":"Golden Village City Square","chain_id":"280","city_id":"20660","telephone":null,"website":null,"location":{"lat":1.3114943,"lon":103.8566704,"address":{"display_text":"180 Kitchener Road, #05-02/03, 208539 Singapore","street":"Kitchener Road","house":"180","zipcode":"208539","city":"Singapore","state":null,"state_abbr":null,"country":"Singapore","country_code":"SG"}},"booking_type":"external"},{"id":"60816","slug":"gv-grand-great-world-city-singapore","name":"Golden Village Grand, Great World City","chain_id":"280","city_id":"20660","telephone":null,"website":null,"location":{"lat":1.293984,"lon":103.832088,"address":{"display_text":"1 Kim Seng Promenade, #03-29, 237994 Singapore","street":"Kim Seng Promenade","house":"1","zipcode":"237994","city":"Singapore","state":null,"state_abbr":null,"country":"Singapore","country_code":"SG"}},"booking_type":"external"},{"id":"60834","slug":"shaw-theatres-lido-singapore","name":"Shaw Theatres Lido","chain_id":"281","city_id":"20660","telephone":null,"website":null,"location":{"lat":1.3055124,"lon":103.8317552,"address":{"display_text":"350 Orchard Road, 5th/6th Floor, Shaw House, 238868 Singapore","street":"Orchard Road","house":"545","zipcode":"238868","city":"Singapore","state":null,"state_abbr":null,"country":"Singapore","country_code":"SG"}},"booking_type":"external"},{"id":"60810","slug":"leisure-park-kallang-singapore","name":"FilmGarde Cineplex Leisure Park Kallang","chain_id":"279","city_id":"20660","telephone":null,"website":"http://www.fgcineplex.com.sg/","location":{"lat":1.30227,"lon":103.874,"address":{"display_text":"5 Stadium Walk, 397693 Singapore","street":"Stadium Walk","house":"4","zipcode":null,"city":"Singapore","state":null,"state_abbr":null,"country":"Singapore","country_code":"SG"}},"booking_type":"external"},{"id":"60813","slug":"gv-tiong-bahru-singapore","name":"Golden Village Tiong Bahru","chain_id":"280","city_id":"20660","telephone":null,"website":null,"location":{"lat":1.2864777,"lon":103.8271852,"address":{"display_text":"302 Tiong Bahru Road, #04-105, 168732 Singapore","street":"Tiong Bahru Road","house":"302","zipcode":"168732","city":"Singapore","state":null,"state_abbr":null,"country":"Singapore","country_code":"SG"}},"booking_type":"external"},{"id":"65179","slug":"shaw-theatres-jewel-singapore","name":"Shaw Theatres Jewel","chain_id":"281","city_id":"20660","telephone":null,"website":"https://www.shaw.sg/theatre/location/1000","location":{"lat":1.32771,"lon":103.838,"address":{"display_text":"78, Airport Boulevard, Jewel Changi Airport, #B2-237, Singapore 819666","street":"Pan Island Expressway","house":null,"zipcode":null,"city":"Singapore","state":null,"state_abbr":null,"country":"Singapore","country_code":"SG"}},"booking_type":"external"},{"id":"60815","slug":"gv-vivocity-singapore","name":"Golden Village VivoCity","chain_id":"280","city_id":"20660","telephone":null,"website":null,"location":{"lat":1.2647865,"lon":103.8232563,"address":{"display_text":"1 HarbourFront Walk, #02-30, 098585 Singapore","street":"Harbourfront Walk","house":"1","zipcode":"098585","city":"Singapore","state":null,"state_abbr":null,"country":"Singapore","country_code":"SG"}},"booking_type":"external"},{"id":"65992","slug":"shaw-theatres-paya-lebar-quarter-singapore","name":"Shaw Theatres Paya Lebar Quarter","chain_id":"281","city_id":"20660","telephone":null,"website":"https://www.shaw.sg/theatre/location/1100","location":{"lat":1.31741,"lon":103.891,"address":{"display_text":"10 Paya Lebar Road, #05-02 Paya Lebar Quarter, PLQ Mall, Singapore 409057","street":"Sims Avenue","house":"589","zipcode":"387600","city":"Singapore","state":null,"state_abbr":null,"country":"Singapore","country_code":"SG"}},"booking_type":"external"},{"id":"64330","slug":"gv-paya-lebar-singapore","name":"Golden Village Paya Lebar","chain_id":"280","city_id":"20660","telephone":"+65 6653 8100","website":"https://www.gv.com.sg/","location":{"lat":1.3189254,"lon":103.8924829,"address":{"display_text":"10 Eunos Rd 8, 107 SingPost Centre,408600 Singapore ","street":null,"house":null,"zipcode":null,"city":"Singapore","state":null,"state_abbr":null,"country":"Singapore","country_code":"SG"}},"booking_type":"external"},{"id":"60812","slug":"gv-bishan-singapore","name":"Golden Village Bishan","chain_id":"280","city_id":"20660","telephone":null,"website":null,"location":{"lat":1.3505253,"lon":103.8486915,"address":{"display_text":"9 Bishan Place, #04-03, 579837 Singapore","street":"Bishan Place","house":"9","zipcode":"579837","city":"Singapore","state":null,"state_abbr":null,"country":"Singapore","country_code":"SG"}},"booking_type":"external"},{"id":"66152","slug":"parkway-parade-singapore-9674e743-0018-43fd-b9b2-5875bff00306","name":"PARKWAY PARADE","chain_id":"278","city_id":"20660","telephone":null,"website":"https://www.cathaycineplexes.com.sg/showtimes.aspx?cinemacode=1112","location":{"lat":1.3014702,"lon":103.9051552,"address":{"display_text":"80 Marine Parade Road Level 7, Parkway Parade Singapore 449269","street":"Marine Parade Road","house":"80","zipcode":"449269","city":"Singapore","state":null,"state_abbr":null,"country":"Singapore","country_code":"SG"}},"booking_type":"external"},{"id":"60819","slug":"gv-katong-singapore","name":"Golden Village Katong","chain_id":"280","city_id":"20660","telephone":null,"website":null,"location":{"lat":1.3051592,"lon":103.9050673,"address":{"display_text":"112 East Coast Road, #04-09, 428802 Singapore","street":"East Coast Road","house":"112","zipcode":"428802","city":"Singapore","state":null,"state_abbr":null,"country":"Singapore","country_code":"SG"}},"booking_type":"external"},{"id":"60836","slug":"shaw-theatres-nex-singapore","name":"Shaw Theatres nex","chain_id":"281","city_id":"20660","telephone":null,"website":null,"location":{"lat":1.3504842,"lon":103.8716467,"address":{"display_text":"23 Serangoon Central, #04-64, Nex, 556083 Singapore","street":"Serangoon Avenue 3","house":"326","zipcode":"556083","city":"Singapore","state":null,"state_abbr":null,"country":"Singapore","country_code":"SG"}},"booking_type":"external"}]}