{"cinemas":[{"id":"60801","slug":"carnival-cinemas-singapore","name":"Carnival Cinemas Shaw Tower","chain_id":"250","city_id":"20660","telephone":"+65 62935717","website":"https://www.carnivalcinemas.sg/","location":{"lat":1.2966,"lon":103.857,"address":{"display_text":"100 Beach Road, #02-30A Shaw Tower,189702 Singapore","street":"Beach Road","house":"100","zipcode":"189702","city":"Singapore","state":null,"state_abbr":null,"country":"Singapore","country_code":"SG"}},"booking_type":null},{"id":"60809","slug":"bugis-singapore","name":"FilmGarde Cineplex Bugis+","chain_id":"279","city_id":"20660","telephone":null,"website":"http://www.fgcineplex.com.sg/","location":{"lat":1.29992,"lon":103.852,"address":{"display_text":"201 Victoria Street, 188067 Singapore","street":"Middle Road","house":"161","zipcode":"188978","city":"Singapore","state":null,"state_abbr":null,"country":"Singapore","country_code":"SG"}},"booking_type":"external"},{"id":"60810","slug":"leisure-park-kallang-singapore","name":"FilmGarde Cineplex Leisure Park Kallang","chain_id":"279","city_id":"20660","telephone":null,"website":"http://www.fgcineplex.com.sg/","location":{"lat":1.30227,"lon":103.874,"address":{"display_text":"5 Stadium Walk, 397693 Singapore","street":"Stadium Walk","house":"4","zipcode":null,"city":"Singapore","state":null,"state_abbr":null,"country":"Singapore","country_code":"SG"}},"booking_type":"external"},{"id":"60811","slug":"gv-yishun-singapore","name":"Golden Village Yishun","chain_id":"280","city_id":"20660","telephone":null,"website":null,"location":{"lat":1.4299238,"lon":103.8364296,"address":{"display_text":"51 Yishun Central 1, 768794 Singapore","street":"Yishun Central 1","house":"51","zipcode":"768794","city":"Singapore","state":null,"state_abbr":null,"country":"Singapore","country_code":"SG"}},"booking_type":"external"},{"id":"60812","slug":"gv-bishan-singapore","name":"Golden Village Bishan","chain_id":"280","city_id":"20660","telephone":null,"website":null,"location":{"lat":1.3505253,"lon":103.8486915,"address":{"display_text":"9 Bishan Place, #04-03, 579837 Singapore","street":"Bishan Place","house":"9","zipcode":"579837","city":"Singapore","state":null,"state_abbr":null,"country":"Singapore","country_code":"SG"}},"booking_type":"external"},{"id":"60813","slug":"gv-tiong-bahru-singapore","name":"Golden Village Tiong Bahru","chain_id":"280","city_id":"20660","telephone":null,"website":null,"location":{"lat":1.2864777,"lon":103.8271852,"address":{"display_text":"302 Tiong Bahru Road, #04-105, 168732 Singapore","street":"Tiong Bahru Road","house":"302","zipcode":"168732","city":"Singapore","state":null,"state_abbr":null,"country":"Singapore","country_code":"SG"}},"booking_type":"external"},{"id":"60814","slug":"gv-jurong-point-singapore","name":"Golden Village Jurong Point","chain_id":"280","city_id":"20660","telephone":null,"website":null,"location":{"lat":1.3393411,"lon":103.7053874,"address":{"display_text":"1 Jurong West Central, #03-25B/26, 649846 Singapore","street":"Jurong West Central 2","house":"1","zipcode":"648886","city":"Singapore","state":null,"state_abbr":null,"country":"Singapore","country_code":"SG"}},"booking_type":"external"},{"id":"60815","slug":"gv-vivocity-singapore","name":"Golden Village VivoCity","chain_id":"280","city_id":"20660","telephone":null,"website":null,"location":{"lat":1.2647865,"lon":103.8232563,"address":{"display_text":"1 HarbourFront Walk, #02-30, 098585 Singapore","street":"Harbourfront Walk","house":"1","zipcode":"098585","city":"Singapore","state":null,"state_abbr":null,"country":"Singapore","country_code":"SG"}},"booking_type":"external"},{"id":"60816","slug":"gv-grand-great-world-city-singapore","name":"Golden Village Grand, Great World City","chain_id":"280","city_id":"20660","telephone":null,"website":null,"location":{"lat":1.293984,"lon":103.832088,"address":{"display_text":"1 Kim Seng Promenade, #03-29, 237994 Singapore","street":"Kim Seng Promenade","house":"1","zipcode":"237994","city":"Singapore","state":null,"state_abbr":null,"country":"Singapore","country_code":"SG"}},"booking_type":"external"},{"id":"60817","slug":"gv-plaza-singapore","name":"Golden Village Plaza","chain_id":"280","city_id":"20660","telephone":null,"website":null,"location":{"lat":1.3007914,"lon":103.8449976,"address":{"display_text":"68 Orchard Road, #07-01, 238839 Singapore","street":"Orchard Road","house":"68","zipcode":"238839","city":"Singapore","state":null,"state_abbr":null,"country":"Singapore","country_code":"SG"}},"booking_type":"external"},{"id":"60819","slug":"gv-katong-singapore","name":"Golden Village Katong","chain_id":"280","city_id":"20660","telephone":null,"website":null,"location":{"lat":1.3051592,"lon":103.9050673,"address":{"display_text":"112 East Coast Road, #04-09, 428802 Singapore","street":"East Coast Road","house":"112","zipcode":"428802","city":"Singapore","state":null,"state_abbr":null,"country":"Singapore","country_code":"SG"}},"booking_type":"external"},{"id":"60820","slug":"gv-city-square-singapore","name":"Golden Village City Square","chain_id":"280","city_id":"20660","telephone":null,"website":null,"location":{"lat":1.3114943,"lon":103.8566704,"address":{"display_text":"180 Kitchener Road, #05-02/03, 208539 Singapore","street":"Kitchener Road","house":"180","zipcode":"208539","city":"Singapore","state":null,"state_abbr":null,"country":"Singapore","country_code":"SG"}},"booking_type":"external"},{"id":"60818","slug":"gv-tampines-singapore","name":"Golden Village Tampines","chain_id":"280","city_id":"20660","telephone":null,"website":null,"location":{"lat":1.3522393,"lon":103.9444006,"address":{"display_text":"4 Tampines Central, #04-17/18, 529510 Singapore","street":"Tampines Central 5","house":"4","zipcode":"529510","city":"Singapore","state":null,"state_abbr":null,"country":"Singapore","country_code":"SG"}},"booking_type":"external"},{"id":"60821","slug":"gv-suntec-city-singapore","name":"Golden Village Suntec City","chain_id":"280","city_id":"20660","telephone":null,"website":null,"location":{"lat":1.2957506,"lon":103.8597125,"address":{"display_text":"3 Temasek Boulevard, #03-373, 038983 Singapore","street":"Temasek Boulevard","house":"3","zipcode":"038983","city":"Singapore","state":null,"state_abbr":null,"country":"Singapore","country_code":"SG"}},"booking_type":"external"},{"id":"60825","slug":"omni-theatre-singapore","name":"Omni Theatre","chain_id":null,"city_id":"20660","telephone":"6425 2500","website":"http://www.omnitheatre.com.sg/","location":{"lat":1.3343,"lon":103.736,"address":{"display_text":"21 Jurong Town Hall Road, 609433","street":"Jurong Town Hall Road","house":null,"zipcode":null,"city":"Singapore","state":null,"state_abbr":null,"country":"Singapore","country_code":"SG"}},"booking_type":null},{"id":"60830","slug":"shaw-theatres-waterway-point-singapore","name":"Shaw Theatres Waterway Point","chain_id":"281","city_id":"20660","telephone":null,"website":null,"location":{"lat":1.4061464,"lon":103.9018679,"address":{"display_text":"83 Punggol Central, #B2-11, Waterway Point, 828761 Singapore","street":"Punggol Central","house":"83","zipcode":"828761","city":"Singapore","state":null,"state_abbr":null,"country":"Singapore","country_code":"SG"}},"booking_type":"external"},{"id":"60831","slug":"the-projector-singapore","name":"The Projector","chain_id":null,"city_id":"20660","telephone":null,"website":"http://theprojector.sg","location":{"lat":1.30195,"lon":103.864,"address":{"display_text":"6001 Beach Road, #05-00, Golden Mile Tower, 199589","street":"Beach Road","house":"6001","zipcode":"199589","city":"Singapore","state":null,"state_abbr":null,"country":"Singapore","country_code":"SG"}},"booking_type":"external"},{"id":"60832","slug":"rex-cinemas-beachrd-singapore","name":"Carnival REX Cinema Golden Mile Tower","chain_id":"250","city_id":"20660","telephone":"+65 69027095","website":"https://www.carnivalcinemas.sg/","location":{"lat":1.3021308,"lon":103.8638586,"address":{"display_text":"6001, Beach Road ,Golden Mile Tower,199589 Singapore","street":"Beach Road","house":"100","zipcode":"199589","city":"Singapore","state":null,"state_abbr":null,"country":"Singapore","country_code":"SG"}},"booking_type":null},{"id":"60833","slug":"shaw-theatres-jcube-singapore","name":"Shaw Theatres JCube","chain_id":"281","city_id":"20660","telephone":null,"website":null,"location":{"lat":1.3332858,"lon":103.7401865,"address":{"display_text":"2 Jurong East Central 1, JCube, #04-11, 609731 Singapore","street":"Jurong Town Hall Road","house":null,"zipcode":"609731","city":"Singapore","state":null,"state_abbr":null,"country":"Singapore","country_code":"SG"}},"booking_type":"external"},{"id":"60834","slug":"shaw-theatres-lido-singapore","name":"Shaw Theatres Lido","chain_id":"281","city_id":"20660","telephone":null,"website":null,"location":{"lat":1.3055124,"lon":103.8317552,"address":{"display_text":"350 Orchard Road, 5th/6th Floor, Shaw House, 238868 Singapore","street":"Orchard Road","house":"545","zipcode":"238868","city":"Singapore","state":null,"state_abbr":null,"country":"Singapore","country_code":"SG"}},"booking_type":"external"},{"id":"60837","slug":"shaw-theatres-seletar-singapore","name":"Shaw Theatres Seletar","chain_id":"281","city_id":"20660","telephone":null,"website":null,"location":{"lat":1.391244,"lon":103.8762712,"address":{"display_text":"33 Sengkang West Avenue, #04-01-02/22, The Seletar Mall, 797653 Singapore","street":"Fernvale Road","house":"443","zipcode":"797653","city":"Singapore","state":null,"state_abbr":null,"country":"Singapore","country_code":"SG"}},"booking_type":"external"},{"id":"60836","slug":"shaw-theatres-nex-singapore","name":"Shaw Theatres nex","chain_id":"281","city_id":"20660","telephone":null,"website":null,"location":{"lat":1.3504842,"lon":103.8716467,"address":{"display_text":"23 Serangoon Central, #04-64, Nex, 556083 Singapore","street":"Serangoon Avenue 3","house":"326","zipcode":"556083","city":"Singapore","state":null,"state_abbr":null,"country":"Singapore","country_code":"SG"}},"booking_type":"external"},{"id":"64329","slug":"bedok","name":"Golden Village Bedok","chain_id":"280","city_id":"20660","telephone":"+65 6653 8100","website":"https://www.gv.com.sg/","location":{"lat":1.3262229,"lon":103.9295912,"address":{"display_text":"445 Bedok North Street 1, Singapore 469661","street":null,"house":null,"zipcode":null,"city":"Singapore","state":null,"state_abbr":null,"country":"Singapore","country_code":"SG"}},"booking_type":"external"},{"id":"64330","slug":"gv-paya-lebar-singapore","name":"Golden Village Paya Lebar","chain_id":"280","city_id":"20660","telephone":"+65 6653 8100","website":"https://www.gv.com.sg/","location":{"lat":1.3189254,"lon":103.8924829,"address":{"display_text":"10 Eunos Rd 8, 107 SingPost Centre,408600 Singapore ","street":null,"house":null,"zipcode":null,"city":"Singapore","state":null,"state_abbr":null,"country":"Singapore","country_code":"SG"}},"booking_type":"external"},{"id":"64626","slug":"century-square-singapore","name":"FilmGarde Cineplex Century Square","chain_id":"279","city_id":"20660","telephone":null,"website":"http://www.fgcineplex.com.sg/","location":{"lat":1.35243,"lon":103.944,"address":{"display_text":"2 Tampines Central 5,529509 Singapore","street":"Tampines Central 5","house":"2","zipcode":"529509","city":"Singapore","state":null,"state_abbr":null,"country":"Singapore","country_code":"SG"}},"booking_type":"external"},{"id":"64648","slug":"carnival-s11-dormitory-punggol-singapore","name":"Carnival S11 Dormitory Punggol","chain_id":"250","city_id":"20660","telephone":"+65 83538729","website":"https://www.carnivalcinemas.sg/","location":{"lat":1.41649,"lon":103.895,"address":{"display_text":"2 Seletar North Link, PPT, 1b, Singapore 797601","street":"Seletar North Link","house":"16","zipcode":"797619","city":"Singapore","state":null,"state_abbr":null,"country":"Singapore","country_code":"SG"}},"booking_type":null},{"id":"64707","slug":"we-cinemas-singapore-f1cde58c-8c70-43ec-b200-509610af5b0e","name":"WE Cinemas","chain_id":null,"city_id":"20660","telephone":"8159 2909","website":"https://www.wecinemas.com.sg","location":{"lat":1.31192,"lon":103.765,"address":{"display_text":"321 Clementi Avenue 3 #03-03, Singapore 129905","street":"Clementi Avenue 3","house":"321","zipcode":"129905","city":"Singapore","state":null,"state_abbr":null,"country":"Singapore","country_code":"SG"}},"booking_type":"external"},{"id":"65179","slug":"shaw-theatres-jewel-singapore","name":"Shaw Theatres Jewel","chain_id":"281","city_id":"20660","telephone":null,"website":"https://www.shaw.sg/theatre/location/1000","location":{"lat":1.32771,"lon":103.838,"address":{"display_text":"78, Airport Boulevard, Jewel Changi Airport, #B2-237, Singapore 819666","street":"Pan Island Expressway","house":null,"zipcode":null,"city":"Singapore","state":null,"state_abbr":null,"country":"Singapore","country_code":"SG"}},"booking_type":"external"},{"id":"65929","slug":"gv-funan-singapore","name":"Golden Village Funan","chain_id":"280","city_id":"20660","telephone":null,"website":"https://www.gv.com.sg/GVCinemaDetails#/cinema/15","location":{"lat":1.2911354,"lon":103.8501524,"address":{"display_text":"\t107 North Bridge road, #05-01, Funan Mall, Singapore 179105","street":null,"house":null,"zipcode":null,"city":"Singapore","state":null,"state_abbr":null,"country":"Singapore","country_code":"SG"}},"booking_type":"external"},{"id":"65977","slug":"eaglewings-cinematics-singapore","name":"Eaglewings Cinematics","chain_id":null,"city_id":"20660","telephone":"+65 9848 7777","website":"https://www.eaglewingscinematics.com.sg/","location":{"lat":1.33702,"lon":103.779,"address":{"display_text":"9 King Albert Park, #01-58, Singapore 598332","street":"King Albert Park","house":"11 King Albert Park, Singapore 598292","zipcode":"598292","city":"Singapore","state":null,"state_abbr":null,"country":"Singapore","country_code":"SG"}},"booking_type":"external"},{"id":"65992","slug":"shaw-theatres-paya-lebar-quarter-singapore","name":"Shaw Theatres Paya Lebar Quarter","chain_id":"281","city_id":"20660","telephone":null,"website":"https://www.shaw.sg/theatre/location/1100","location":{"lat":1.31741,"lon":103.891,"address":{"display_text":"10 Paya Lebar Road, #05-02 Paya Lebar Quarter, PLQ Mall, Singapore 409057","street":"Sims Avenue","house":"589","zipcode":"387600","city":"Singapore","state":null,"state_abbr":null,"country":"Singapore","country_code":"SG"}},"booking_type":"external"},{"id":"66149","slug":"causeway-point-singapore-df9b9d6b-7ac9-47b7-b952-168941454709","name":"CAUSEWAY POINT","chain_id":"278","city_id":"20660","telephone":null,"website":"https://www.cathaycineplexes.com.sg/showtimes.aspx?cinemacode=1102","location":{"lat":1.4369416,"lon":103.7863953,"address":{"display_text":"1 Woodlands Square Level 7, Causeway Point Singapore 738099 Nearest MRT Station Woodlands","street":"Woodlands Avenue 2","house":null,"zipcode":"738343","city":"Singapore","state":null,"state_abbr":null,"country":"Singapore","country_code":"SG"}},"booking_type":"external"},{"id":"66150","slug":"downtown-east-singapore-7ecc65a6-aed8-441e-86b1-92e801e57ea6","name":"DOWNTOWN EAST","chain_id":"278","city_id":"20660","telephone":null,"website":"https://www.cathaycineplexes.com.sg/showtimes.aspx?cinemacode=1106","location":{"lat":1.3757774,"lon":103.9556996,"address":{"display_text":"Market Square @ Downtown East 1 Pasir Ris Close Level 4, E!Hub Singapore 519599","street":"Pasir Ris Close","house":"1","zipcode":"519599","city":"Singapore","state":null,"state_abbr":null,"country":"Singapore","country_code":"SG"}},"booking_type":"external"},{"id":"66151","slug":"cineleisure-orchard-singapore-943bcb1c-a77b-4cbb-b864-d007f795106d","name":"CINELEISURE ORCHARD","chain_id":"278","city_id":"20660","telephone":null,"website":"https://www.cathaycineplexes.com.sg/showtimes.aspx?cinemacode=1101","location":{"lat":1.301527,"lon":103.8363441,"address":{"display_text":"8 Grange Road Levels 4, 5 \u0026 6, Cathay Cineleisure Orchard Singapore 239695","street":null,"house":null,"zipcode":"239695","city":"Singapore","state":null,"state_abbr":null,"country":"Singapore","country_code":"SG"}},"booking_type":"external"},{"id":"66152","slug":"parkway-parade-singapore-9674e743-0018-43fd-b9b2-5875bff00306","name":"PARKWAY PARADE","chain_id":"278","city_id":"20660","telephone":null,"website":"https://www.cathaycineplexes.com.sg/showtimes.aspx?cinemacode=1112","location":{"lat":1.3014702,"lon":103.9051552,"address":{"display_text":"80 Marine Parade Road Level 7, Parkway Parade Singapore 449269","street":"Marine Parade Road","house":"80","zipcode":"449269","city":"Singapore","state":null,"state_abbr":null,"country":"Singapore","country_code":"SG"}},"booking_type":"external"},{"id":"66155","slug":"the-cathay-singapore-0acf1dea-46ea-49f4-aea5-ffc2cb7c06b5","name":"THE CATHAY","chain_id":"278","city_id":"20660","telephone":null,"website":"https://www.cathaycineplexes.com.sg/showtimes.aspx?cinemacode=1104","location":{"lat":1.2990366,"lon":103.8478449,"address":{"display_text":"2 Handy Road Levels 5 \u0026 6, The Cathay Singapore 229233","street":"Handy Road","house":null,"zipcode":"229233","city":"Singapore","state":null,"state_abbr":null,"country":"Singapore","country_code":"SG"}},"booking_type":"external"},{"id":"66153","slug":"jem-singapore-e41f1582-5c0a-4f66-92c0-8e4605078777","name":"JEM","chain_id":"278","city_id":"20660","telephone":null,"website":"https://www.cathaycineplexes.com.sg/showtimes.aspx?cinemacode=1110","location":{"lat":1.3332858,"lon":103.7433959,"address":{"display_text":"50 Jurong Gateway Road Level 5, Jem Singapore 608549","street":"Jurong Gateway Road","house":"50","zipcode":"608549","city":"Singapore","state":null,"state_abbr":null,"country":"Singapore","country_code":"SG"}},"booking_type":"external"},{"id":"66154","slug":"west-mall-singapore-99f26be4-e847-4e96-9aa2-41e0ca393d7b","name":"WEST MALL","chain_id":"278","city_id":"20660","telephone":null,"website":"https://www.cathaycineplexes.com.sg/showtimes.aspx?cinemacode=1108","location":{"lat":1.3501199,"lon":103.7492141,"address":{"display_text":"1 Bukit Batok Central Link Level 5, West Mall Singapore 658713 Nearest MRT Station Bukit Batok","street":"Bukit Batok Central Link","house":"1","zipcode":"658713","city":"Singapore","state":null,"state_abbr":null,"country":"Singapore","country_code":"SG"}},"booking_type":"external"},{"id":"66156","slug":"amk-hub-singapore-cabb1214-22cb-4dc2-98f8-f158adc5b1c3","name":"AMK HUB","chain_id":"278","city_id":"20660","telephone":null,"website":"https://www.cathaycineplexes.com.sg/showtimes.aspx?cinemacode=1105","location":{"lat":1.3693166,"lon":103.8483057,"address":{"display_text":"53 Ang Mo Kio Ave 3 Level 4, AMK Hub Singapore 569933 Nearest MRT Station Ang Mo Kio","street":"Ang Mo Kio Avenue 3","house":"53","zipcode":"569933","city":"Singapore","state":null,"state_abbr":null,"country":"Singapore","country_code":"SG"}},"booking_type":"external"}]}