{"cinemas":[{"id":"66155","slug":"the-cathay-singapore-0acf1dea-46ea-49f4-aea5-ffc2cb7c06b5","name":"THE CATHAY","chain_id":"278","city_id":"20660","telephone":null,"website":"https://www.cathaycineplexes.com.sg/showtimes.aspx?cinemacode=1104","location":{"lat":1.2990366,"lon":103.8478449,"address":{"display_text":"2 Handy Road Levels 5 \u0026 6, The Cathay Singapore 229233","street":"Handy Road","house":null,"zipcode":"229233","city":"Singapore","state":null,"state_abbr":null,"country":"Singapore","country_code":"SG"}},"booking_type":"external"},{"id":"60809","slug":"bugis-singapore","name":"FilmGarde Cineplex Bugis+","chain_id":"279","city_id":"20660","telephone":null,"website":"http://www.fgcineplex.com.sg/","location":{"lat":1.29992,"lon":103.852,"address":{"display_text":"201 Victoria Street, 188067 Singapore","street":"Middle Road","house":"161","zipcode":"188978","city":"Singapore","state":null,"state_abbr":null,"country":"Singapore","country_code":"SG"}},"booking_type":"external"},{"id":"60817","slug":"gv-plaza-singapore","name":"Golden Village Plaza","chain_id":"280","city_id":"20660","telephone":null,"website":null,"location":{"lat":1.3007914,"lon":103.8449976,"address":{"display_text":"68 Orchard Road, #07-01, 238839 Singapore","street":"Orchard Road","house":"68","zipcode":"238839","city":"Singapore","state":null,"state_abbr":null,"country":"Singapore","country_code":"SG"}},"booking_type":"external"},{"id":"65929","slug":"gv-funan-singapore","name":"Golden Village Funan","chain_id":"280","city_id":"20660","telephone":null,"website":"https://www.gv.com.sg/GVCinemaDetails#/cinema/15","location":{"lat":1.2911354,"lon":103.8501524,"address":{"display_text":"\t107 North Bridge road, #05-01, Funan Mall, Singapore 179105","street":null,"house":null,"zipcode":null,"city":"Singapore","state":null,"state_abbr":null,"country":"Singapore","country_code":"SG"}},"booking_type":"external"},{"id":"60801","slug":"carnival-cinemas-singapore","name":"Carnival Cinemas Shaw Tower","chain_id":"250","city_id":"20660","telephone":"+65 62935717","website":"https://www.carnivalcinemas.sg/","location":{"lat":1.2966,"lon":103.857,"address":{"display_text":"100 Beach Road, #02-30A Shaw Tower,189702 Singapore","street":"Beach Road","house":"100","zipcode":"189702","city":"Singapore","state":null,"state_abbr":null,"country":"Singapore","country_code":"SG"}},"booking_type":null}]}